{"id":1,"producers":[
{"id":289,"lat":46.119263,"lng":5.499422,"name":"le potager de ceignes","txt":"Production et commercialisation de légumes de saison","post_code":1430,"city":"Ceignes","addr":" 162 Rue de la mairie ","cat":"AM","tel":"0675040955","email":"le.potager.de.ceignes@gmail.com","web":"","suspect":0}
,{"id":290,"lat":46.204285,"lng":5.443956,"name":"les jardins de cize","txt":"Maraîchage biologique, diversifié et de saison dans un petit village de la petite montagne. Nous produisons nos propres plants et les vendons aussi.","post_code":1250,"city":"Cize","addr":" chemin de l'église 0","cat":"AM","tel":"0474429042","email":"","web":"","suspect":0}
,{"id":291,"lat":45.827263,"lng":4.965048,"name":"crack cafés","txt":"Vente de cafés fraîchement torréfiés de façon artisanale. Cafés en grains ou moulus à la demande. Différentes origines et différents profils aromatiques.","post_code":1700,"city":"Miribel","addr":" 306 avenue Henri Deschamps ","cat":"AX","tel":"0604523341","email":"natacha@crack-cafes.fr","web":"https://www.crack-cafes.fr","suspect":0}
,{"id":292,"lat":46.292713,"lng":6.103364,"name":"la ferme aquaponique du pays de gex","txt":"Découvrez le concept de l'aquaponie dans notre ferme garantie 100% sans pesticides. Des truites fraiches aux légumes de saison, notre sélection de produits sains et locaux séduira les papilles des petits et des grands !","post_code":1210,"city":"Versonnex","addr":" 120 Rue du Stade ","cat":"AM","tel":"0689067159","email":"","web":"","suspect":0}
,{"id":293,"lat":46.040207,"lng":5.444084,"name":"gaec de plan poncieux","txt":"Eleveur de brebis, génisses et porcs charcutiers. Vente de caissettes d'agneau, porc ou bœuf.","post_code":1640,"city":"Boyeux-Saint-Jérôme","addr":" 66 montée de la plantee 0","cat":"A2","tel":"0602672236","email":"Bertrand.noiret@gmail.com","web":"http://www.lafermedeponcieux.fr","suspect":0}
,{"id":294,"lat":46.071266,"lng":5.303171,"name":"rucher des brotteaux de la rivière d ain","txt":"Apiculteur récoltant miels de l Ain en pots de verre. Sarrazin en culture bio Chataignier Tilleul des bords de lAin Acacia Forêt Montagne et  miels d'ailleurs Lavande ou Lavandin des Hautes Alpes en culture bio","post_code":1160,"city":"Druillat","addr":" 447 route des combes ","cat":"AN","tel":"0681277145","email":"happy.culteur01@gmail.com","web":"https://www.facebook.com/happyculteur01","suspect":0}
,{"id":295,"lat":46.224087,"lng":5.418368,"name":"ferme maraîchère du petit simandre","txt":"Producteur de légumes de saison certifiés Agriculture Biologique","post_code":1250,"city":"Simandre-sur-Suran","addr":" 35 impasse du pecheur ","cat":"AM","tel":null,"email":"fermemaraicheredupetitsimandre@gmail.com","web":"https://www.facebook.com/FermeMaraichereDuPetitSimandre","suspect":0}
,{"id":297,"lat":46.026875,"lng":5.297038,"name":"rucher des charrons","txt":"Production de miels variés issus de zones protégées du département de l'Ain et de Haute-Savoie.\nTout est fait pour garantir des conditions de vie optimales à nos colonies.","post_code":1160,"city":"Priay","addr":" 103 chemin des charrons ","cat":"AN","tel":null,"email":"rucherdescharrons@orange.fr","web":"http://www.rucherdescharrons.fr","suspect":0}
,{"id":298,"lat":46.224564,"lng":5.411143,"name":"le jardin de jean-louis","txt":"Les fruits et légumes du jardin de Jean-Louis sont produits en agriculture raisonnée, dans le respect de l'environnement : pas d'utilisation de produits chimiques,  semences sans OGM, rotation des cultures, insectes auxiliaires etc..","post_code":1250,"city":"Simandre-sur-Suran","addr":" 47 Chemin des communaux ","cat":"AM","tel":"0642280226","email":"","web":"http://www.lejardindejeanlouis.com","suspect":0}
,{"id":299,"lat":46.41952,"lng":5.295553,"name":"le rucher des nymphes","txt":"Les abeilles des 300 ruches de l’exploitation butinent dans un environnement favorable : la biodiversité florale du territoire offre aux abeilles de quoi produire un miel goûteux.\n\nCe producteur est fortement engagé pour une agriculture durable et raisonnée.","post_code":1270,"city":"Domsure","addr":" 11 A route de la Gazagne ","cat":"AN","tel":"0677333608","email":"","web":"","suspect":0}
,{"id":300,"lat":45.940407,"lng":5.594283,"name":"gaec les chèvres de m.seguin","txt":"fromages de chèvres biologiques et desserts de chèvres","post_code":1110,"city":"Plateau d'Hauteville","addr":" vaux saint sulpice 01110 Cormaranche-en-Bugey ","cat":"AL","tel":"0682444855","email":"amandine_berodier@hotmail.fr","web":"https://www.facebook.com/leschevresdemseguin/?ref=aymt_homepage_panel","suspect":0}
,{"id":301,"lat":46.06787,"lng":4.780661,"name":"savon emoi","txt":"Savon Emoi produit divers cosmétiques (crèmes, baumes, huiles, savonnerie d'hygiène).","post_code":1090,"city":"Lurcy","addr":" Impasse du Cailleton ","cat":"3","tel":"0647810086","email":"mariedelurcy@gmail.com","web":"","suspect":0}
,{"id":302,"lat":46.31313,"lng":5.215508,"name":"serge patrick audollent","txt":"La Ferme des Ecuets commercialise de la viande bovine, caprine, ovine mais aussi de la volaille. Elle vend également de la charcuteries.","post_code":1340,"city":"Attignat","addr":" Ferme des Ecuets ","cat":"A2","tel":"0474309720","email":"","web":"","suspect":0}
,{"id":303,"lat":46.30152,"lng":5.006838,"name":"les jardins d'aestiv","txt":"Les Jardins d'Aestiv commercialisent principalement des céréales.","post_code":1380,"city":"Bâgé-Dommartin","addr":" 2225 route de la Terrasse 01380 Bâgé-la-Ville ","cat":"A","tel":"0676057385","email":"les.jardins.daestiv@gmail.com","web":"","suspect":1}
,{"id":12779,"lat":43.92447,"lng":5.025279,"name":"EURL BIDAL ALAIN EDOUARD","txt":"Taille, façonnage et finissage de pierres","post_code":1111,"city":"PROVENCE-ALPES-COTE D'AZUR","addr":"PROVENCE-ALPES-COTE D'AZUR","cat":"OU","tel":null,"email":"","web":"","suspect":0}
,{"id":10855,"lat":45.853146,"lng":5.0846004,"name":"AYMAP - Collège Marcel Aymé","txt":"Production : , Légumes","post_code":1120,"city":"Dagneux","addr":"Chemin de Marigneux","cat":"AG","tel":null,"email":"edd.0011142l@ac-lyon.fr","web":"","suspect":0}
,{"id":3341,"lat":46.11957,"lng":4.956282,"name":"Atelier IN-QUARTO","txt":"TYPE D'ACTIVITÉ : Création,Restauration,Tradition; SECTEUR :  Arts graphiques; SPÉCIALITÉ :  Reliure traditionnelle et contemporaine; DIPLÔMES : CAP et DMA; ","post_code":1400,"city":"Châtillon-sur-Chalaronne","addr":"rue commerson, 01400 Chatillon sur Chalaronne","cat":"OS","tel":"0673000790","email":"contact@atelier-in-quarto.fr","web":"http://www.atelier-in-quarto.fr","suspect":0}
,{"id":3377,"lat":45.943466,"lng":4.771382,"name":"ATOME CROCHU","txt":"TYPE D'ACTIVITÉ : Création; SECTEUR :  Bijouterie-joaillerie-orfèvrerie-horlogerie; SPÉCIALITÉ :  Création des bijoux d'après mes dessins et peintures issus de mes voyages.; DIPLÔMES : Formation Artistique (techniques peinture); ","post_code":1600,"city":"Trévoux","addr":"115 rue Beausite, 01600 TREVOUX","cat":"OB","tel":"0678164951","email":"a.crochu@free.fr","web":"http://a.crochu@free.fr","suspect":1}
,{"id":3383,"lat":46.253998,"lng":4.849608,"name":"AU PLAISIR DES YEUX","txt":"TYPE D'ACTIVITÉ : Création,Restauration,Tradition; SECTEUR :  Bois; SPÉCIALITÉ :  Encadrement et restauration de cadres anciens.; DIPLÔMES : CAP Encadreur; ","post_code":1290,"city":"Grièges","addr":"100, rue Marie Joseph Bonnat, 01290 GRIEGES","cat":"O0","tel":"0385315836","email":"contact@auplaisirdesyeux.com","web":"","suspect":1}
,{"id":3391,"lat":46.405506,"lng":5.150969,"name":"BERNARD GONNET, ÉMAILLEUR","txt":"TYPE D'ACTIVITÉ : Création; SECTEUR :  Métal; SPÉCIALITÉ :  Emailleur sur métal; DIPLÔMES : Autodidacte; ","post_code":1560,"city":"Lescheroux","addr":"Fontaramiel, ","cat":"OF","tel":"0474526433","email":"info@bernardgonnet.com","web":"http://www.bernardgonnet.com","suspect":0}
,{"id":3417,"lat":45.757725,"lng":5.706365,"name":"CHRISTOPHE ROSFELDER MAÎTRE-ÉBÉNISTE","txt":"TYPE D'ACTIVITÉ : Création; SECTEUR :  Bois; SPÉCIALITÉ :  Création de meubles contemporains; DIPLÔMES : Brevet de Maîtrise en Ebéniste; ","post_code":1300,"city":"Belley","addr":"za de l'ousson, 01300 BELLEY","cat":"O0","tel":"0680074427","email":"rosfelder.ebeniste@gmail.com","web":"","suspect":1}
,{"id":3477,"lat":46.271095,"lng":5.653051,"name":"FS METALLERIE _ ATELIER SUPERSAX","txt":"TYPE D'ACTIVITÉ : Création; SECTEUR : Métiers liés à l'architecture; SPÉCIALITÉ :  CREATEUR DE MOBILIER; DIPLÔMES : COMPAGNON DU DEVOIR + CQPM 061 ET 059 + CWB SOUDURE + NACELLE; ","post_code":1100,"city":"Oyonnax","addr":"33 RUE DE TAMAS, 01100 OYONNAX","cat":"OM","tel":"0602163448","email":"FABIEN.SUPERSAX@GMAIL.COM","web":"http://WWW.ATELIER-SUPERSAX.COM","suspect":0}
,{"id":3505,"lat":45.66827,"lng":5.611997,"name":"L'Atelier de Gastyne","txt":"TYPE D'ACTIVITÉ : Création; SECTEUR :  Bijouterie-joaillerie-orfèvrerie-horlogerie; SPÉCIALITÉ :  bijoux uniques en argent et bois precieux; DIPLÔMES : CAP metaux precieux option bijouterie; ","post_code":1300,"city":"Groslée-Saint-Benoit","addr":"356 rue de la cascade Glandieu, 01300 St Benoit","cat":"OB","tel":"0645847109","email":"latelierdegastyne@neuf.fr","web":"http://latelierdegastyne.overblog.com","suspect":1}
,{"id":3518,"lat":46.079746,"lng":5.468168,"name":"LA CUIVRERIE DE CERDON","txt":"TYPE D'ACTIVITÉ : Restauration; SECTEUR :  Métal; SPÉCIALITÉ :  Réparation, rénovation, rétamage; DIPLÔMES : CAP, BEI, BP, ex-enseignant Chaudronnerie; ","post_code":1450,"city":"Cerdon","addr":"rue de la Cuivrerie, ","cat":"OF","tel":"0474399644","email":"contact@cuivreriedecerdon.com","web":"http://www.cuivreriedecerdon.com","suspect":0}
,{"id":3537,"lat":45.959396,"lng":5.831305,"name":"LE TRAIN ROUGE","txt":"TYPE D'ACTIVITÉ : Création; SECTEUR : Mode; SPÉCIALITÉ :  Fabrication de vêtements sur mesure (costumes d'époque) de poupées et marionnettes, spectacles de marionnettes; DIPLÔMES : CAP- BEP TAILLEUR et brevet des métiers du spectacle; ","post_code":1420,"city":"Seyssel","addr":"4 rue Tiersot, 01420 SEYSSEL","cat":"OE","tel":"0610366259","email":"parhelies@gmail.com","web":"http://parhelies.blogspot.com","suspect":0}
,{"id":3588,"lat":46.259487,"lng":5.650535,"name":"Patrice Pointet Créations","txt":"TYPE D'ACTIVITÉ : Création,Tradition; SECTEUR :  Tabletterie; SPÉCIALITÉ :  Fabrication manuelle de montures en acétate de celulose; DIPLÔMES : Expérience professionnelle; ","post_code":1100,"city":"Oyonnax","addr":"9 Rue Edgar QUINET, 01100 OYONNAX","cat":"OE","tel":"0681660869","email":"patrice.pointet@gmail.com","web":"","suspect":1}
,{"id":10007,"lat":45.849155,"lng":5.121219,"name":"Ferme…Là!","txt":"Magasin de produits fermiers, issus des exploitations des 15 producteurs associés : fruits, légumes, viande, lapin, volailles (canard, poulet, pintade),.... ","post_code":1360,"city":"Balan","addr":"1546 Route de Lyon ","cat":"AG","tel":"0472254372","email":"","web":"","suspect":0}
,{"id":10008,"lat":45.823902,"lng":4.952454,"name":"La Ferme de Miribel","txt":"Un regroupement de 7 producteurs qui vous font découvrir tous les bons produits issus de leurs exploitations .... ","post_code":1700,"city":"Miribel","addr":"954 Grande Rue ","cat":"AG","tel":"0472882680","email":"","web":"","suspect":0}
,{"id":10002,"lat":46.298756,"lng":4.881412,"name":"Aux Saveurs Fermières","txt":"HORAIRES Mardi, mercredi et jeudi 9h-12h et 15h-19h Vendredi et samedi 9h-12h30 et 14h-19h. Spécialités : Truite fumée - Truite fraîche - Rillettes de truite - Escargots","post_code":1750,"city":"Replonges","addr":"252 Route de Bourg ","cat":"AG","tel":"0385311165","email":"","web":"","suspect":0}
,{"id":10003,"lat":46.295135,"lng":5.680971,"name":"Brin de Paille","txt":"17 agriculteurs réunis en un point de vente collectif s’engagent pour vendre des produits fermiers de saison et vous garantissent la présence d’un producteur à la vente. HORAIRES Le mardi, mercredi et jeudi : 9h - 12h30 et 15h - 19h Le vendredi : 9h - 19h Le samedi : 9h - 18h. Spécialités : Vin de basilic - Cerises bio - Fromages de vache, chèvre et brebis - Pain au levain","post_code":1100,"city":"Arbent","addr":"1080 rue du Général Andréa ","cat":"AG","tel":"0474730786","email":"","web":"https://www.brindepaille.net","suspect":0}
,{"id":10005,"lat":46.200153,"lng":5.190048,"name":"Ferm’andises","txt":"Spécialités : Sucre floral de lavande - Amandes - Pâtes artisanales - Volailles de Bresse - Vins de Bugey - Foie gras de canard - Asperges","post_code":1000,"city":"Saint-Denis-lès-Bourg","addr":"170 Rue du Village ","cat":"AG","tel":"0474225616","email":"","web":"https://www.facebook.com/Fermandises","suspect":0}
,{"id":10006,"lat":46.43821,"lng":4.952457,"name":"Ferm’Emplettes","txt":"Magasin regroupant 17 producteurs de la région proposant poulet de Bresse, poulet fermier, porc fermier et bio, viande d’agneau, .... ","post_code":1190,"city":"Saint-Bénigne","addr":"Le Grand Mollard ","cat":"AG","tel":"0966965611","email":"","web":"","suspect":0}
,{"id":10010,"lat":45.91791,"lng":4.821162,"name":"La Meuhh !","txt":" ","post_code":1600,"city":"Parcieux","addr":"Chemin des Eguets ","cat":"AG","tel":"0437269521","email":"","web":"","suspect":0}
,{"id":10011,"lat":46.17893,"lng":5.324175,"name":"La Panouille","txt":"","post_code":1250,"city":"Ceyzériat","addr":"Rue Jérome Lalande ","cat":"AG","tel":"0474300536","email":"","web":"","suspect":0}
,{"id":10012,"lat":45.976475,"lng":5.599517,"name":"Le Plateau Fermier","txt":" ","post_code":1110,"city":"Plateau d'Hauteville","addr":"12 Rue de Tenay 01110 Hauteville-Lompnes","cat":"AG","tel":"0474351370","email":"","web":"","suspect":0}
,{"id":10014,"lat":45.99619,"lng":5.027799,"name":"Les Fermiers de la Dombes","txt":"Point de vente ouvert depuis 1987 où 16 agriculteurs de l’Ain se relaient à tour de rôle pour vendre les produits de leurs exploitations.. Spécialités : Poissons des étangs de la Dombes - Vin de Cerdon - Volailles festives - Escargots - Foie gras de canard","post_code":1330,"city":"Villars-les-Dombes","addr":"1211 avenue Charles de Gaulle 01330 Villars-Les-Dombes","cat":"AG","tel":"0474981666","email":"","web":"","suspect":1}
,{"id":10015,"lat":45.97742,"lng":5.315981,"name":"Patur’Ain","txt":"Spécialités : Affiliation :  Charte des Boutiques Paysannes Elle prône la vente directe et sans intermédiaire de produits fermiers issus des exploitations des producteurs. \nElle offre la garantie de l'origine des produits et la transparence sur les modes d'élevage, de culture et de transformation.Notre équipe de producteurs, vous accueille dans son point de vente, et vous propose toute une gamme de produits du terroir provenant directement de leur ferme... HORAIRES Mercredi, jeudi et vendredi : 9h - 12h et 15h - 19h Samedi : 9h - 19h. ","post_code":1500,"city":"Château-Gaillard","addr":"Avenue Charles de Gaulle ","cat":"AG","tel":"0474346601","email":"patur-ain@orange.fr","web":"","suspect":0}
,{"id":10390,"lat":45.922054,"lng":5.1809306,"name":"La Ferme du Favier","txt":"oeufs miel et pommes Bio","post_code":1800,"city":"Meximieux","addr":" Lieu-dit Le Favier","cat":"A","tel":null,"email":"amr01@orange.fr","web":"https://amapdutoison.amap-aura.org/2018/12/26/producteur-de-miel-bio-de-pommes-bio-et-doeufs-bio/","suspect":0}
,{"id":10631,"lat":46.26813,"lng":6.100416,"name":"AMAP du Pays de Gex","txt":"Production : , Légumes","post_code":1210,"city":"Ferney-Voltaire","addr":"grand-Rue","cat":"AG","tel":null,"email":"amappdg@cc-pays-de-gex.fr","web":"","suspect":1}
,{"id":10632,"lat":46.43903,"lng":4.971785,"name":"AMAP Les paniers de Nizerel","txt":"Production : , Légumes, Vache, Chèvre, Pains et farines, Porc, Volaille, Bœuf, Autres / divers","post_code":1190,"city":"Saint-Bénigne","addr":"lieu dit Nizerel","cat":"AG","tel":null,"email":"paniers.nizerel@gmail.com","web":"","suspect":1}
,{"id":10634,"lat":46.30603,"lng":6.099987,"name":"Les Paniers de Versonnex","txt":"Production : , Légumes, Fruits, Œufs, Porc, Volaille, Bœuf, Autres / divers","post_code":1210,"city":"Versonnex","addr":"Rue St Martin","cat":"AG","tel":null,"email":"webmaster.panierdeversonnex@gmail.com","web":"","suspect":0}
,{"id":10635,"lat":45.905254,"lng":45.905254,"name":"AMAP Terr' Ain d'entente","txt":"Production : , Légumes, Fruits, Vache, Chèvre, Brebis, Vin et bières, Œufs, Pains et farines, Volaille, Agneau, Bœuf, Miel, Autres / divers","post_code":1260,"city":"Champagne-en-Valromey","addr":" Rue du Boule","cat":"AG","tel":null,"email":"contact@amapterreaindentente.fr","web":"","suspect":0}
,{"id":10636,"lat":46.039753,"lng":5.406139,"name":"AMAP Vert à Soie","txt":"Production : , Légumes, Fruits, Chèvre, Œufs, Pains et farines, Porc, Bœuf, Autres / divers","post_code":1640,"city":"Jujurieux","addr":"28 Rue du Champ de Foire","cat":"AG","tel":null,"email":"amapjuju@gasparanc.fr","web":"","suspect":0}
,{"id":10638,"lat":45.95988,"lng":5.35647,"name":"AMAP'Hort","txt":"Production : , Légumes, Œufs, Pains et farines, Porc, Agneau, Bœuf, Miel","post_code":1500,"city":"Ambérieu-en-Bugey","addr":"Place Jules Ferry BP427","cat":"AG","tel":null,"email":"amaphort@gmail.com","web":"","suspect":0}
,{"id":10639,"lat":46.26019,"lng":5.653458,"name":"Jur'Ainsienne","txt":"Production : , Légumes, Fruits, Vache, Chèvre, Vin et bières, Œufs, Pains et farines, Porc, Bœuf, Miel, Autres / divers, Huiles, Veau","post_code":1100,"city":"Oyonnax","addr":"1 Place des arcardes à Bellignat","cat":"AG","tel":null,"email":"amapoyonnax@gmail.com","web":"","suspect":0}
,{"id":10640,"lat":46.263294,"lng":4.887439,"name":"AMAP de la VEYLE","txt":"Production : , Légumes, Fruits, Vache, Chèvre, Œufs, Pains et farines, Porc, Bœuf, Miel","post_code":1290,"city":"Pont-de-Veyle","addr":"Avenue des sports","cat":"AG","tel":null,"email":"amaplapetitevenise@tutanota.com","web":"","suspect":1}
,{"id":10613,"lat":45.905033,"lng":5.1961665,"name":"AMAP du TOISON","txt":"Production : , Légumes, Vin et bières, Œufs, Pains et farines, Porc, Bœuf, Autre, Miel, Autres / divers","post_code":1800,"city":"Meximieux","addr":"3 Rue du Ban Thévenin","cat":"AG","tel":null,"email":"amapdutoison@gmail.com","web":"http://amapdutoison.amap-aura.org/","suspect":0}
,{"id":10633,"lat":46.162235,"lng":5.413513,"name":"AMAP L'hirondelle de rivage","txt":"Production : , Légumes, Chèvre, Vin et bières, Œufs, Pains et farines, Porc, Volaille, Agneau, Bœuf, Miel, Autres / divers, Plantes aromatiques","post_code":1250,"city":"Bohas-Meyriat-Rignat","addr":"Route des Villages","cat":"AG","tel":null,"email":"hirondellederivage@mailo.com","web":"","suspect":0}
,{"id":10812,"lat":46.310787,"lng":5.212828,"name":"AMAP des Ecuets","txt":"Production : , Légumes","post_code":1340,"city":"Attignat","addr":"route des Ecuets","cat":"AG","tel":null,"email":"amapdesecuets@laposte.net","web":"","suspect":1}
,{"id":10815,"lat":46.319836,"lng":5.313713,"name":"AMAP de Carouge","txt":"Production : , Légumes, Chèvre","post_code":1270,"city":"Villemotier","addr":"Hameau de Carouge","cat":"AG","tel":null,"email":"amap.villemotier@laposte.net","web":"","suspect":0}
,{"id":10824,"lat":46.18936,"lng":5.926173,"name":"Les paniers de la fontaine","txt":"Production : , Légumes","post_code":1630,"city":"Péron","addr":"1 Place Saint-Antoine","cat":"AG","tel":null,"email":"amapperon@gmail.com","web":"","suspect":0}
,{"id":10825,"lat":46.256004,"lng":4.966266,"name":"AMAP de Marillat","txt":"Production : , Légumes, Vache, Œufs, Pains et farines, Bœuf","post_code":1380,"city":"Saint-Cyr-sur-Menthon","addr":"53 Allée des Échazeaux","cat":"AG","tel":null,"email":"amapdesaintcyr@orange.fr","web":"","suspect":0}
,{"id":10836,"lat":46.2035,"lng":5.2225237,"name":"BourgAMAP","txt":"Production : , Légumes, Fruits, Vin et bières, Œufs, Pains et farines, Fruits transformés (confitures et jus ..)","post_code":1000,"city":"Bourg-en-Bresse","addr":" 2 rue du 23eme R.I.","cat":"AG","tel":null,"email":"bourgamap@gmail.com","web":"","suspect":0}
,{"id":10837,"lat":46.279438,"lng":6.014192,"name":"Les paniers de Crozet","txt":"Production : , Légumes","post_code":1170,"city":"Crozet","addr":" Place de la Mairie","cat":"AG","tel":null,"email":"lespaniersdecrozet@yahoo.fr","web":"","suspect":1}
,{"id":11963,"lat":45.93837,"lng":4.966733,"name":"Maison Richart","txt":"Fabrication de cacao, chocolat et de produits de confiserie","post_code":1390,"city":"Saint-André-de-Corcy","addr":"34 Rue de Flechet","cat":"A","tel":null,"email":"","web":"","suspect":0}
,{"id":12040,"lat":46.26094,"lng":5.651231,"name":"OPTISUN","txt":"Fabrication de lunettes (32.50B)","post_code":1100,"city":"Oyonnax","addr":"56 Rue Jules Michelet","cat":"OB","tel":null,"email":"","web":"","suspect":0}
,{"id":12044,"lat":46.200962,"lng":5.60392,"name":"A.S. CLASSIC ENGINEERING","txt":"Entretien et réparation de véhicules automobiles légers (45.20A)","post_code":1100,"city":"Martignat","addr":"450 Rue des Lavours","cat":"OU","tel":null,"email":"","web":"","suspect":0}
,{"id":12122,"lat":46.269104,"lng":5.609424,"name":"LUCAL","txt":"Fabrication de lunettes (32.50B)","post_code":1100,"city":"Oyonnax","addr":"455 Rue de la Calatière","cat":"OB","tel":null,"email":"","web":"","suspect":0}
,{"id":12169,"lat":46.27257,"lng":5.65695,"name":"ALEXANDRE DE PARIS","txt":"Fabrication de produits de consommation courante en matières plastiques","post_code":1100,"city":"Arbent","addr":"17 Rue François Rochaix","cat":"O","tel":null,"email":"","web":"","suspect":0}
,{"id":12231,"lat":45.84177,"lng":5.070497,"name":"BILLON (BILLON DESIGN / BILLON TEINTURE / BILLON SPORT)","txt":"Fabrication d’étoffes à mailles","post_code":1120,"city":"Dagneux","addr":"938 Rue de la Craz","cat":"OB","tel":null,"email":"","web":"","suspect":0}
,{"id":12311,"lat":45.852684,"lng":5.067006,"name":"ART & PATRIMOINE CONSEIL","txt":"Création artistique relevant des arts plastiques (90.03A)","post_code":1120,"city":"Dagneux","addr":"15 Lotissement le Grand Chatel","cat":"O0","tel":null,"email":"","web":"","suspect":0}
,{"id":12337,"lat":45.903744,"lng":4.877339,"name":"FIL'ING","txt":"Fabrication d’autres textiles n.c.a. (13.99Z)","post_code":1390,"city":"Civrieux","addr":"90 Rue Copernic","cat":"OB","tel":null,"email":"","web":"","suspect":0}
,{"id":12563,"lat":45.82229,"lng":4.959643,"name":"ETABLISSEMENTS PROVERBIO","txt":"Ennoblissement textile (13.30Z)","post_code":1700,"city":"Miribel","addr":"Quai du Rhone","cat":"OB","tel":null,"email":"","web":"","suspect":0}
,{"id":12617,"lat":46.216682,"lng":5.220307,"name":"GIRAUDET","txt":"Fabrication de plats préparés","post_code":1000,"city":"Bourg-en-Bresse","addr":"10 avenue arséne d'arsonval","cat":"A","tel":null,"email":"","web":"","suspect":0}
,{"id":12630,"lat":45.840023,"lng":5.646376,"name":"DANIEL MOEVUS","txt":"Fabrication d’objets divers en bois ; fabrication d’objets en liège, vannerie et sparterie (16.29Z)","post_code":1510,"city":"Virieu-le-Grand","addr":"En Sauvy","cat":"O0","tel":null,"email":"","web":"","suspect":0}
,{"id":12655,"lat":45.78993,"lng":5.456554,"name":"ROMIGUIER ARTISANAT (LE SAC DU BERGER)","txt":"Fabrication d’articles de voyage, de maroquinerie et de sellerie (15.12Z)","post_code":1470,"city":"Briord","addr":"1 Route du Pont","cat":"OB","tel":null,"email":"","web":"","suspect":0}
,{"id":12735,"lat":46.213898,"lng":5.22732,"name":"MOISSONNIER","txt":"Fabrication d’autres meubles et industries connexes de l’ameublement (31.09B)","post_code":1000,"city":"Bourg-en-Bresse","addr":"67 avenue andré maginot","cat":"O0","tel":null,"email":"","web":"","suspect":0}
,{"id":12772,"lat":44.46498,"lng":2.740174,"name":"ROYAL LIMOGES","txt":"Fabrication d’articles céramiques à usage domestique ou ornemental (23.41Z)","post_code":1111,"city":"NOUVELLE AQUITAINE","addr":"NOUVELLE AQUITAINE","cat":"OQ","tel":null,"email":"","web":"","suspect":0}
,{"id":12773,"lat":43.710888,"lng":4.195569,"name":"La Botte Gardiane - M.A.G. Sarl","txt":"Fabrication de chaussures (15.20Z)","post_code":1111,"city":"OCCITANIE","addr":"OCCITANIE","cat":"OB","tel":null,"email":"","web":"","suspect":0}
,{"id":12774,"lat":48.38118,"lng":5.676348,"name":"ATELIER CLUBSPIRIT","txt":"Fabrication d’autres meubles et industries connexes de l’ameublement","post_code":1111,"city":"GRAND-EST","addr":"GRAND-EST","cat":"O0","tel":null,"email":"","web":"","suspect":0}
,{"id":12775,"lat":47.26638,"lng":-0.117272146,"name":"SOC FREDERIC BUTET","txt":"Fabrication d'articles de voyage, de maroquinerie et de sellerie","post_code":1111,"city":"PAYS-DE-LA-LOIRE","addr":"PAYS-DE-LA-LOIRE","cat":"OB","tel":null,"email":"","web":"","suspect":0}
,{"id":12800,"lat":45.855762,"lng":5.130979,"name":"CAVA FRANCE","txt":"univers de marché: Musique; effectifs: 7","post_code":1360,"city":"Béligneux","addr":"ZA les 2B ,        1360 BÉLIGNEUX France","cat":"_","tel":null,"email":"","web":"","suspect":0}
,{"id":12833,"lat":45.84138,"lng":5.42678,"name":"GUILLET","txt":"Conception, fabrication et commercialisation d'outils pour le travail de la pierre, pour le second oeuvre du bâtiment et pour l'industrie.","post_code":1150,"city":"Villebois","addr":"875 , Route de la Gare ,        1150 Villebois France","cat":"_","tel":null,"email":"info@guillet-tools.com","web":"","suspect":0}
,{"id":3423,"lat":46.118916,"lng":5.806322,"name":"COUEDEL FRANCK ET FLORENCE","txt":"TYPE D'ACTIVITÉ : Création,Restauration,Tradition; SECTEUR :  Textile; SPÉCIALITÉ :  Restauration mobilier Monuments Nationaux; DIPLÔMES : CAP tapissier d'ameublement, garniture décor; ","post_code":1200,"city":"Valserhône","addr":"131 Allée Maryse Bastié ZA Les Echarmasses, 01200 CHATILLON EN MICHAILLE","cat":"OE","tel":"0450597951","email":"contact@couedel.com","web":"http://www.couedel.com","suspect":1}
,{"id":3490,"lat":46.09221,"lng":5.779983,"name":"Inspiration Patines","txt":"TYPE D'ACTIVITÉ : Restauration; SECTEUR :  Bois; SPÉCIALITÉ :  Patines et décors; DIPLÔMES : Peintre su mobilier niveau IV; ","post_code":1200,"city":"Villes","addr":"50A rue du Docteur Coste, ","cat":"O0","tel":"0660167912","email":"inspirationpatines@gmail.com","web":"","suspect":1}
,{"id":10004,"lat":45.75461,"lng":5.67789,"name":"Bugey Côté Fermes","txt":"Spécialités : Affiliation :  Charte des Boutiques Paysannes Elle prône la vente directe et sans intermédiaire de produits fermiers issus des exploitations des producteurs. \nElle offre la garantie de l'origine des produits et la transparence sur les modes d'élevage, de culture et de transformation.C’est un groupe de 15 exploitants agricoles et d’un artisan qui sont adhérents de l’association Bugey Côté Fermes et qui gèrent collectivement le magasin. HORAIRES Le mardi : 14h - 19h Le mercredi, jeudi et vendredi : 9h - 12h30 et 14h - 19h Le samedi : 9h - 19h. Spécialités : Poissons du lac du Bourget - Viande de boeuf biologique - Safran - Tisanes - Conserves de cerf - Foie gras de canard","post_code":1300,"city":"Belley","addr":"La Voire ","cat":"AG","tel":"0479813385","email":"","web":"https://www.bugeycotefermes.fr","suspect":0}
,{"id":10009,"lat":46.11828,"lng":4.959621,"name":"La Marande","txt":"Spécialités : Affiliation :  Charte des Boutiques Paysannes Elle prône la vente directe et sans intermédiaire de produits fermiers issus des exploitations des producteurs. \nElle offre la garantie de l'origine des produits et la transparence sur les modes d'élevage, de culture et de transformation.Nous sommes un groupe de 18 producteurs fermiers, nous travaillons ensemble afin de vous faire découvrir des produits vrais et authentiques, des produits sains et de qualité, ayant le goût et la saveur de nos campagnes ... HORAIRES Du mardi au Vendredi : 8h30 - 12h30 et 15h - 19h Le samedi : 8h30 - 13h et 14h30 - 19h. ","post_code":1400,"city":"Châtillon-sur-Chalaronne","addr":"240 Avenue Clément Désormes ","cat":"AG","tel":"0474552388","email":"la.marande@orange.fr","web":"http://www.lamarande.fr/","suspect":0}
,{"id":10614,"lat":45.85253,"lng":5.058704,"name":"Les Paniers de la Côtière","txt":"Production : , Légumes, Fruits, Chèvre, Vin et bières, Œufs, Pains et farines, Porc, Volaille, Agneau, Bœuf, Miel, Céréales et légumineuses, Fruits transformés (confitures et jus ..), Plantes aromatiques","post_code":1120,"city":"Montluel","addr":"ruette du Loup","cat":"AG","tel":null,"email":"amapcotiere01@gmail.com","web":"","suspect":0}
,{"id":10630,"lat":46.25252,"lng":5.996132,"name":"AMAP des Chênes","txt":"Production : , Légumes, Œufs","post_code":1630,"city":"Sergy","addr":"150, chemin des Granges","cat":"AG","tel":null,"email":"info@amapdeschenes.fr","web":"","suspect":1}
,{"id":10637,"lat":45.8911,"lng":5.278739,"name":"AMAP’tite Contrée","txt":"Production : , Légumes, Fruits, Vin et bières, Œufs, Pains et farines, Porc, Bœuf, Miel, Huiles, Fruits transformés (confitures et jus ..), Plantes aromatiques","post_code":1150,"city":"Sainte-Julie","addr":"53 Place du Lavoir","cat":"AG","tel":null,"email":"amaptitecontree@gmail.com","web":"","suspect":0}
,{"id":10850,"lat":45.95422,"lng":5.3445344,"name":"Ain'stant Panier","txt":"Production : , Légumes, Chèvre, Œufs, Pains et farines, Miel, Céréales et légumineuses, Fruits transformés (confitures et jus ..)","post_code":1500,"city":"Ambérieu-en-Bugey","addr":"87 Avenue Roger Salengro","cat":"AG","tel":null,"email":"ainstantpanier@gmail.com","web":"","suspect":0}
,{"id":12828,"lat":45.84437,"lng":5.213922,"name":"Japanese Linocut","txt":"Passionné par le Japon, ses paysages et sa culture, je crée des estampes uniques, inspirées des photos prises lors de mes voyages au pays du Soleil-Levant. Mes œuvres reflètent la richesse et la diversité des paysages japonais, sublimant la beauté des temples, la grâce des maiko, et l'univers fascinant du folklore nippon.Chaque création est réalisée à la main dans mon atelier, de la gravure à l’impression. J’utilise des techniques artisanales traditionnelles, notamment la gravure sur linoléum et l’impression manuelle sur papier de mûrier japonais. Chaque estampe est proposée en série limitée, signée et certifiée, et imprimée avec soin pour garantir une qualité exceptionnelle.Mes œuvres sont également soigneusement emballées et, pour certaines commandes, présentées dans des cadres. Elles incarnent l’authenticité et l’élégance de l’artisanat, tout en mettant à l’honneur l’esthétique et la culture japonaise.François Pache, artiste.","post_code":1800,"city":"Saint-Jean-de-Niost","addr":"163 Chemin de Rolion ,        01800  France","cat":"_","tel":null,"email":"hello@japanese-linocut.com","web":"","suspect":0}
,{"id":12912,"lat":45.843826,"lng":5.060163,"name":"JACOMEX","txt":"Jacomex est une PME française spécialisée dans la conception et la fabrication de boîtes à gants et enceintes de confinement sous atmosphère contrôlée. Fondée en 1945 et basée à Dagneux (01), l’entreprise intervient dans des secteurs exigeants tels que le nucléaire, la chimie, la batterie, le photovoltaïque et autres technologies de pointe. Reconnue pour son expertise en étanchéité (norme ISO 10648-2), elle conçoit et produit en France des équipements innovants et exporte 50 % de sa production à l'étranger.","post_code":1120,"city":"Montluel","addr":"184 avenue du Bicentenaire  Zone les Prés Seigneurs,,        01120  France","cat":"_","tel":null,"email":"contact@jacomex.fr","web":"","suspect":0}
]}